{
"type": "FeatureCollection",
"name": "Community_Food_Resources",
"crs": { "type": "name", "properties": { "name": "urn:ogc:def:crs:OGC:1.3:CRS84" } },
"features": [
{ "type": "Feature", "properties": { "OBJECTID": 1, "USER_Type": "Community Food  Programs", "USER_Region": "Kingston", "USER_Community_Food_Resource_Na": "Salvation Army Community Choice Pantry", "USER_Address": "183 Weller Ave", "USER_Province": "ON", "USER_Postal_Code": "K7K 2V1", "USER_Affordability": "No cost ", "USER_More_information": "https://sacfs.ca/programs/community-choice-pantry" }, "geometry": { "type": "Point", "coordinates": [ -76.488241617, 44.262398912 ] } },
{ "type": "Feature", "properties": { "OBJECTID": 2, "USER_Type": "Community Café", "USER_Region": "Sharbot Lake", "USER_Community_Food_Resource_Na": "Rural Frontenac Community Services - Community Café for Seniors", "USER_Address": "1109 Garrett St", "USER_Province": "ON", "USER_Postal_Code": "K0H 2P0", "USER_Affordability": "Low cost ", "USER_More_information": "https://rfcs.ca/programs/seniors-services/programs-2/" }, "geometry": { "type": "Point", "coordinates": [ -76.689975656999906, 44.770713720000103 ] } },
{ "type": "Feature", "properties": { "OBJECTID": 3, "USER_Type": "Community Café", "USER_Region": "Sydenham", "USER_Community_Food_Resource_Na": "Southern Frontenac Community Services Cooperation- Good Graces Cafe", "USER_Address": "4295 Stagecoach Rd", "USER_Province": "ON", "USER_Postal_Code": "K0H 2T0", "USER_Affordability": "Low cost ", "USER_More_information": "https://www.sfcsc.ca/" }, "geometry": { "type": "Point", "coordinates": [ -76.5966720119999, 44.404839005 ] } },
{ "type": "Feature", "properties": { "OBJECTID": 4, "USER_Type": "Community Café", "USER_Region": "Kingston", "USER_Community_Food_Resource_Na": "Seniors Association Kingston Region - The Seniors Centre", "USER_Address": "56 Francis St", "USER_Province": "ON", "USER_Postal_Code": "K7M 1L7", "USER_Affordability": "Low cost ", "USER_More_information": "https://seniorskingston.ca/" }, "geometry": { "type": "Point", "coordinates": [ -76.522334589, 44.224367912 ] } },
{ "type": "Feature", "properties": { "OBJECTID": 5, "USER_Type": "Community Food Programs", "USER_Region": "Kingston", "USER_Community_Food_Resource_Na": "Heart to Home Meals", "USER_Address": "870 Selkirk Rd", "USER_Province": "ON", "USER_Postal_Code": "K7P 1B6", "USER_Affordability": "Low cost ", "USER_More_information": "https://www.hearttohomemeals.ca/" }, "geometry": { "type": "Point", "coordinates": [ -76.579965622, 44.253039092000101 ] } },
{ "type": "Feature", "properties": { "OBJECTID": 6, "USER_Type": "Community Food Programs", "USER_Region": "Sydenham", "USER_Community_Food_Resource_Na": "Southern Frontenac Community Services Cooperation- Community Food Bank", "USER_Address": "4295 Stagecoach Rd", "USER_Province": "ON", "USER_Postal_Code": "K0H 2T0", "USER_Affordability": "No cost ", "USER_More_information": "https://www.sfcsc.ca/" }, "geometry": { "type": "Point", "coordinates": [ -76.5966720119999, 44.404839005 ] } },
{ "type": "Feature", "properties": { "OBJECTID": 7, "USER_Type": "Community Food Programs", "USER_Region": "Kingston", "USER_Community_Food_Resource_Na": "KFL&A Public Health food programs - Food for You, Food for Two", "USER_Address": "221 Portsmouth Ave", "USER_Province": "ON", "USER_Postal_Code": "K7M 1V5", "USER_Affordability": "Low cost ", "USER_More_information": "https://www.kflaph.ca/en/clinics-and-classes/food-for-you-food-for-two-classes.aspx" }, "geometry": { "type": "Point", "coordinates": [ -76.525210839, 44.227873517 ] } },
{ "type": "Feature", "properties": { "OBJECTID": 8, "USER_Type": "Community Food Programs", "USER_Region": "Kingston", "USER_Community_Food_Resource_Na": "Loving Spoonful", "USER_Address": "63 Weller Ave", "USER_Province": "ON", "USER_Postal_Code": "K7K 2V4", "USER_Affordability": "No cost ", "USER_More_information": "https://www.lovingspoonful.org/" }, "geometry": { "type": "Point", "coordinates": [ -76.48262546, 44.262596937000097 ] } },
{ "type": "Feature", "properties": { "OBJECTID": 9, "USER_Type": "Community Food Programs", "USER_Region": "Sharbot Lake", "USER_Community_Food_Resource_Na": "North & Central Frontenac Food Bank", "USER_Address": "14152 Rd. 38", "USER_Province": "ON", "USER_Postal_Code": "K0H 2P0", "USER_Affordability": "No cost ", "USER_More_information": "https://www.ncffoodbank.org/" }, "geometry": { "type": "Point", "coordinates": [ -76.689246216, 44.769644361000097 ] } },
{ "type": "Feature", "properties": { "OBJECTID": 10, "USER_Type": "Community Food Programs ", "USER_Region": "Kingston", "USER_Community_Food_Resource_Na": "KCHC - Seniors Food Box", "USER_Address": "263 Weller Ave", "USER_Province": "ON", "USER_Postal_Code": "K7K 2V4", "USER_Affordability": "No cost ", "USER_More_information": "https://kchc.ca/programs/seniors-food-box/" }, "geometry": { "type": "Point", "coordinates": [ -76.491432775, 44.262753885000102 ] } },
{ "type": "Feature", "properties": { "OBJECTID": 11, "USER_Type": "Community Food Programs ", "USER_Region": "Kingston", "USER_Community_Food_Resource_Na": "KCHC - Good Food Box Kingston", "USER_Address": "263 Weller Ave", "USER_Province": "ON", "USER_Postal_Code": "K7K 2V4", "USER_Affordability": "Low cost ", "USER_More_information": "https://kchc.ca/programs/seniors-food-box/" }, "geometry": { "type": "Point", "coordinates": [ -76.491432775, 44.262753885000102 ] } },
{ "type": "Feature", "properties": { "OBJECTID": 12, "USER_Type": "Community Food Programs", "USER_Region": "Kingston", "USER_Community_Food_Resource_Na": "St. Lawrence College Student Association - Food for Thought Program", "USER_Address": "100 Portsmouth Ave", "USER_Province": "ON", "USER_Postal_Code": "K7L 5A6", "USER_Affordability": "No cost ", "USER_More_information": "https://www.saslc.ca/food-pantry" }, "geometry": { "type": "Point", "coordinates": [ -76.526937594999893, 44.22349238 ] } },
{ "type": "Feature", "properties": { "OBJECTID": 13, "USER_Type": "Community Food Programs ", "USER_Region": "Kingston", "USER_Community_Food_Resource_Na": "Parry & Penny's Community Fridge", "USER_Address": "506 Days Rd", "USER_Province": "ON", "USER_Postal_Code": "K7M 5R4", "USER_Affordability": "No cost ", "USER_More_information": "https://instagram.com/PPCommunityFridge" }, "geometry": { "type": "Point", "coordinates": [ -76.569850507999902, 44.236527204 ] } },
{ "type": "Feature", "properties": { "OBJECTID": 14, "USER_Type": "Community Food Programs ", "USER_Region": "Kingston", "USER_Community_Food_Resource_Na": "Partners In Mission Food Bank", "USER_Address": "140 Hickson Ave", "USER_Province": "ON", "USER_Postal_Code": "K7K 2N6", "USER_Affordability": "No cost ", "USER_More_information": "https://www.kingstonfoodbank.ca/" }, "geometry": { "type": "Point", "coordinates": [ -76.489012417, 44.252547912000097 ] } },
{ "type": "Feature", "properties": { "OBJECTID": 15, "USER_Type": "Community Gardens", "USER_Region": "Sydenham", "USER_Community_Food_Resource_Na": "Southern Frontenac Community Services Cooperation- Grace Community Garden", "USER_Address": "4295 Stagecoach Rd", "USER_Province": "ON", "USER_Postal_Code": "K0H 2T0", "USER_Affordability": "No cost ", "USER_More_information": "https://www.sfcsc.ca/" }, "geometry": { "type": "Point", "coordinates": [ -76.5966720119999, 44.404839005 ] } },
{ "type": "Feature", "properties": { "OBJECTID": 16, "USER_Type": "Community Gardens", "USER_Region": "Kingston", "USER_Community_Food_Resource_Na": "Robinson Community Garden", "USER_Address": "3747 Princess St", "USER_Province": "ON", "USER_Postal_Code": "K7P 3A7", "USER_Affordability": "No cost ", "USER_More_information": "https://www.facebook.com/RobinsonAndAbramsCommunityInitiative/" }, "geometry": { "type": "Point", "coordinates": [ -76.63987628, 44.266450095 ] } },
{ "type": "Feature", "properties": { "OBJECTID": 17, "USER_Type": "Community Gardens", "USER_Region": "Kingston", "USER_Community_Food_Resource_Na": "Queen's University - An Clachan Community Garden", "USER_Address": "47 Van Order Dr", "USER_Province": "ON", "USER_Postal_Code": "K7M 1B6", "USER_Affordability": "No cost ", "USER_More_information": "https://www.queensu.ca/sustainable/act/community-gardens" }, "geometry": { "type": "Point", "coordinates": [ -76.516551579, 44.234944784 ] } },
{ "type": "Feature", "properties": { "OBJECTID": 18, "USER_Type": "Community Gardens", "USER_Region": "Kingston", "USER_Community_Food_Resource_Na": "Ongwanada Community Garden", "USER_Address": "114 Wright Crescent", "USER_Province": "ON", "USER_Postal_Code": "K7L 4T9", "USER_Affordability": "No cost ", "USER_More_information": "https://www.ongwanada.com/support-services/community-services/community-garden/" }, "geometry": { "type": "Point", "coordinates": [ -76.5162168049999, 44.239749207 ] } },
{ "type": "Feature", "properties": { "OBJECTID": 19, "USER_Type": "Community Gardens", "USER_Region": "Kingston", "USER_Community_Food_Resource_Na": "Queen's University - Employee Community Garden", "USER_Address": "48 University Ave", "USER_Province": "ON", "USER_Postal_Code": "K7L 3N8", "USER_Affordability": "No cost ", "USER_More_information": "https://www.queensu.ca/sustainable/act/community-gardens" }, "geometry": { "type": "Point", "coordinates": [ -76.496089341, 44.225906913000102 ] } },
{ "type": "Feature", "properties": { "OBJECTID": 20, "USER_Type": "Community Gardens", "USER_Region": "Kingston", "USER_Community_Food_Resource_Na": "Queen's University -  AMS Community Garden", "USER_Address": "218 Barrie St", "USER_Province": "ON", "USER_Postal_Code": "K7L 3K3", "USER_Affordability": "No cost ", "USER_More_information": "https://www.queensu.ca/sustainable/act/community-gardens" }, "geometry": { "type": "Point", "coordinates": [ -76.491311069999895, 44.229247982000103 ] } },
{ "type": "Feature", "properties": { "OBJECTID": 21, "USER_Type": "Community Gardens", "USER_Region": "Kingston", "USER_Community_Food_Resource_Na": "AMHS Community Garden", "USER_Address": "31 Lyons St", "USER_Province": "ON", "USER_Postal_Code": "K7K 0C9", "USER_Affordability": "No cost ", "USER_More_information": "https://amhs-kfla.ca/" }, "geometry": { "type": "Point", "coordinates": [ -76.499201792999898, 44.254763920000102 ] } },
{ "type": "Feature", "properties": { "OBJECTID": 22, "USER_Type": "Community Gardens", "USER_Region": "Kingston", "USER_Community_Food_Resource_Na": "CFB Kingston Community Garden", "USER_Address": "32 Lundy's Ln", "USER_Province": "ON", "USER_Postal_Code": "K7K 5J3", "USER_Affordability": "No cost ", "USER_More_information": "https://cfmws.ca/kingston/military-family-resource-centre-(mfrc)" }, "geometry": { "type": "Point", "coordinates": [ -76.447832462, 44.2372886160001 ] } },
{ "type": "Feature", "properties": { "OBJECTID": 23, "USER_Type": "Community Gardens", "USER_Region": "Kingston", "USER_Community_Food_Resource_Na": "Extend-a-Family Diversity Garden", "USER_Address": "361 Montreal St", "USER_Province": "ON", "USER_Postal_Code": "K7K 3H4", "USER_Affordability": "No cost ", "USER_More_information": "https://www.eafkingston.com/diversitygarden" }, "geometry": { "type": "Point", "coordinates": [ -76.487152221, 44.2413980950001 ] } },
{ "type": "Feature", "properties": { "OBJECTID": 24, "USER_Type": "Community Gardens", "USER_Region": "Kingston", "USER_Community_Food_Resource_Na": "John Howard Society Community Garden", "USER_Address": "771 Montreal St", "USER_Province": "ON", "USER_Postal_Code": "K7K 3J6", "USER_Affordability": "No cost ", "USER_More_information": "https://johnhoward.on.ca/kingston/" }, "geometry": { "type": "Point", "coordinates": [ -76.484806964, 44.252123285 ] } },
{ "type": "Feature", "properties": { "OBJECTID": 25, "USER_Type": "Community Gardens", "USER_Region": "Kingston", "USER_Community_Food_Resource_Na": "Salvation Army Community Garden", "USER_Address": "342 Patrick St", "USER_Province": "ON", "USER_Postal_Code": "K7K 6R6", "USER_Affordability": "No cost ", "USER_More_information": "https://sacfs.ca/" }, "geometry": { "type": "Point", "coordinates": [ -76.491173773999904, 44.245685690000101 ] } },
{ "type": "Feature", "properties": { "OBJECTID": 26, "USER_Type": "Community Gardens", "USER_Region": "Kingston", "USER_Community_Food_Resource_Na": "Sydenham Street United Church", "USER_Address": "82 Sydenham St", "USER_Province": "ON", "USER_Postal_Code": "K7L 3H3", "USER_Affordability": "No cost ", "USER_More_information": "https://sydenhamstreet.ca/ssuc1/community-outreach/community-garden/" }, "geometry": { "type": "Point", "coordinates": [ -76.488266510999907, 44.229972891 ] } },
{ "type": "Feature", "properties": { "OBJECTID": 27, "USER_Type": "Community Gardens", "USER_Region": "Kingston", "USER_Community_Food_Resource_Na": "Queen's University - West Campus Community Garden", "USER_Address": "80-48 West Campus Lane", "USER_Province": "ON", "USER_Postal_Code": "K7M 5W9", "USER_Affordability": "No cost ", "USER_More_information": "https://www.queensu.ca/sustainable/act/community-gardens" }, "geometry": { "type": "Point", "coordinates": [ -76.486538372, 44.2250790430001 ] } },
{ "type": "Feature", "properties": { "OBJECTID": 28, "USER_Type": "Community Gardens", "USER_Region": "Kingston", "USER_Community_Food_Resource_Na": "Town Homes Community Garden", "USER_Address": "610 Montreal St", "USER_Province": "ON", "USER_Postal_Code": "K7K 3J2", "USER_Affordability": "No cost ", "USER_More_information": "https://townhomeskingston.ca/" }, "geometry": { "type": "Point", "coordinates": [ -76.487225479, 44.248199591000102 ] } },
{ "type": "Feature", "properties": { "OBJECTID": 29, "USER_Type": "Community Gardens", "USER_Region": "Kingston", "USER_Community_Food_Resource_Na": "Kingston Co-Op Homes Garden", "USER_Address": "1338 Princess St", "USER_Province": "ON", "USER_Postal_Code": "K7M 3E2", "USER_Affordability": "No cost ", "USER_More_information": "https://kingstoncoop.ca/" }, "geometry": { "type": "Point", "coordinates": [ -76.528464191, 44.247690390000102 ] } },
{ "type": "Feature", "properties": { "OBJECTID": 30, "USER_Type": "Community Gardens", "USER_Region": "Kingston", "USER_Community_Food_Resource_Na": "KASSI (Kingston Area Seed Systems Initiative)", "USER_Address": "236 Nelson St", "USER_Province": "ON", "USER_Postal_Code": "K7K 4M7", "USER_Affordability": "No cost ", "USER_More_information": "https://seedsgrowfood.org/" }, "geometry": { "type": "Point", "coordinates": [ -76.502300835, 44.237700083 ] } },
{ "type": "Feature", "properties": { "OBJECTID": 31, "USER_Type": "Community Gardens", "USER_Region": "Kingston", "USER_Community_Food_Resource_Na": "Indigenous Food Sovereignty Garden ", "USER_Address": "1467 Hwy  15", "USER_Province": "ON", "USER_Postal_Code": "K7K 7J9", "USER_Affordability": "No cost ", "USER_More_information": "https://www.facebook.com/groups/219010656662963/" }, "geometry": { "type": "Point", "coordinates": [ -76.4503682389999, 44.273692646 ] } },
{ "type": "Feature", "properties": { "OBJECTID": 32, "USER_Type": "Community Gardens", "USER_Region": "Kingston", "USER_Community_Food_Resource_Na": "Seventh Day Adventist Church Community Garden", "USER_Address": "66 Wright Cres", "USER_Province": "ON", "USER_Postal_Code": "K7L 4T9", "USER_Affordability": "No cost ", "USER_More_information": "https://www.cityofkingston.ca/activities-and-recreation/facilities-and-rentals/community-gardens-and-orchards/" }, "geometry": { "type": "Point", "coordinates": [ -76.517009313999907, 44.238337485 ] } },
{ "type": "Feature", "properties": { "OBJECTID": 33, "USER_Type": "Community Garden??s - Municipal Land", "USER_Region": "Kingston", "USER_Community_Food_Resource_Na": "McBurney Park Community Garden??", "USER_Address": "157 Ordnance St", "USER_Province": "ON", "USER_Postal_Code": "7K 1H1 ", "USER_Affordability": "No cost ", "USER_More_information": "https://www.cityofkingston.ca/activities-and-recreation/facilities-and-rentals/community-gardens-and-orchards/" }, "geometry": { "type": "Point", "coordinates": [ -76.488669764, 44.235204581000097 ] } },
{ "type": "Feature", "properties": { "OBJECTID": 34, "USER_Type": "Community Gardens", "USER_Region": "Wolfe Island", "USER_Community_Food_Resource_Na": "Wolfe Island Community Garden", "USER_Address": "36 Centre St", "USER_Province": "ON", "USER_Postal_Code": "K0H 2Y0", "USER_Affordability": "No cost ", "USER_More_information": "https://www.cityofkingston.ca/activities-and-recreation/facilities-and-rentals/community-gardens-and-orchards/" }, "geometry": { "type": "Point", "coordinates": [ -76.386002096, 44.178816501 ] } },
{ "type": "Feature", "properties": { "OBJECTID": 35, "USER_Type": "Community Garden??s - Municipal Land", "USER_Region": "Kingston", "USER_Community_Food_Resource_Na": "Elmwood Community Gardens", "USER_Address": "36 Elmwood St", "USER_Province": "ON", "USER_Postal_Code": "K7M 2Y5", "USER_Affordability": "No cost ", "USER_More_information": "https://www.cityofkingston.ca/activities-and-recreation/facilities-and-rentals/community-gardens-and-orchards/" }, "geometry": { "type": "Point", "coordinates": [ -76.521474773, 44.241427516 ] } },
{ "type": "Feature", "properties": { "OBJECTID": 36, "USER_Type": "Community Gardens - Municipal Land", "USER_Region": "Kingston", "USER_Community_Food_Resource_Na": "Oak St Community Garden", "USER_Address": " 62 Oak St", "USER_Province": "ON", "USER_Postal_Code": "K7K 2N1", "USER_Affordability": "No cost ", "USER_More_information": "https://www.cityofkingston.ca/activities-and-recreation/facilities-and-rentals/community-gardens-and-orchards/" }, "geometry": { "type": "Point", "coordinates": [ -76.504999724, 44.2496945030001 ] } },
{ "type": "Feature", "properties": { "OBJECTID": 37, "USER_Type": "Community Garden??s - Municipal Land", "USER_Region": "Kingston", "USER_Community_Food_Resource_Na": "Lakeside Community Garden", "USER_Address": "670 Front Rd", "USER_Province": "ON", "USER_Postal_Code": "K7M 6T5", "USER_Affordability": "No cost ", "USER_More_information": "https://www.cityofkingston.ca/activities-and-recreation/facilities-and-rentals/community-gardens-and-orchards/" }, "geometry": { "type": "Point", "coordinates": [ -76.567217166, 44.218954418000102 ] } },
{ "type": "Feature", "properties": { "OBJECTID": 38, "USER_Type": "Community Gardens - Municipal Land", "USER_Region": "Kingston", "USER_Community_Food_Resource_Na": "Compton Park Garden", "USER_Address": "346 College St", "USER_Province": "ON", "USER_Postal_Code": "K7L 4M6", "USER_Affordability": "No cost ", "USER_More_information": "https://www.cityofkingston.ca/activities-and-recreation/facilities-and-rentals/community-gardens-and-orchards/" }, "geometry": { "type": "Point", "coordinates": [ -76.510534881, 44.234591697 ] } },
{ "type": "Feature", "properties": { "OBJECTID": 39, "USER_Type": "Community Gardens - Municipal Land", "USER_Region": "Kingston", "USER_Community_Food_Resource_Na": "Friendship Park Community Garden", "USER_Address": "21 Carlisle St", "USER_Province": "ON", "USER_Postal_Code": "K7K 3X1", "USER_Affordability": "No cost ", "USER_More_information": "https://www.cityofkingston.ca/activities-and-recreation/facilities-and-rentals/community-gardens-and-orchards/" }, "geometry": { "type": "Point", "coordinates": [ -76.491159022, 44.237382912 ] } },
{ "type": "Feature", "properties": { "OBJECTID": 40, "USER_Type": "Community Gardens - Municipal Land", "USER_Region": "Kingston", "USER_Community_Food_Resource_Na": "Kingston Community Health Centres Community Garden", "USER_Address": "263 Weller Ave", "USER_Province": "ON", "USER_Postal_Code": "K7K 2V4", "USER_Affordability": "No cost ", "USER_More_information": "https://kchc.ca/programs/seniors-food-box/" }, "geometry": { "type": "Point", "coordinates": [ -76.491432775, 44.262753885000102 ] } },
{ "type": "Feature", "properties": { "OBJECTID": 41, "USER_Type": "Community Gardens - Municipal Land", "USER_Region": "Kingston", "USER_Community_Food_Resource_Na": "Community Harvest Garden", "USER_Address": "463 Elliott Ave", "USER_Province": "ON", "USER_Postal_Code": "K7K 6J9", "USER_Affordability": "No cost ", "USER_More_information": "https://www.cityofkingston.ca/activities-and-recreation/facilities-and-rentals/community-gardens-and-orchards/" }, "geometry": { "type": "Point", "coordinates": [ -76.502047295999901, 44.256228345000103 ] } },
{ "type": "Feature", "properties": { "OBJECTID": 42, "USER_Type": "Community Gardens - Municipal Land", "USER_Region": "Kingston", "USER_Community_Food_Resource_Na": "Calvin Park Community Garden", "USER_Address": "200 Norman Rogers Dr", "USER_Province": "ON", "USER_Postal_Code": "K7M 2R4", "USER_Affordability": "No cost ", "USER_More_information": "https://www.cityofkingston.ca/activities-and-recreation/facilities-and-rentals/community-gardens-and-orchards/" }, "geometry": { "type": "Point", "coordinates": [ -76.523099186, 44.232931703000098 ] } },
{ "type": "Feature", "properties": { "OBJECTID": 43, "USER_Type": "Community Gardens - Municipal Land", "USER_Region": "Kingston", "USER_Community_Food_Resource_Na": "Sunnyside Community Garden", "USER_Address": "246 MacDonnell St", "USER_Province": "ON", "USER_Postal_Code": "K7L 4C3", "USER_Affordability": "No cost ", "USER_More_information": "https://www.cityofkingston.ca/activities-and-recreation/facilities-and-rentals/community-gardens-and-orchards/" }, "geometry": { "type": "Point", "coordinates": [ -76.505181267999902, 44.232866724000097 ] } },
{ "type": "Feature", "properties": { "OBJECTID": 44, "USER_Type": "Community Gardens - Municipal Land", "USER_Region": "Kingston", "USER_Community_Food_Resource_Na": "MacLean Park Community Garden", "USER_Address": "226 Gore Rd", "USER_Province": "ON", "USER_Postal_Code": "K7L 0C3", "USER_Affordability": "No cost ", "USER_More_information": "https://www.cityofkingston.ca/activities-and-recreation/facilities-and-rentals/community-gardens-and-orchards/" }, "geometry": { "type": "Point", "coordinates": [ -76.455820918, 44.259907894 ] } },
{ "type": "Feature", "properties": { "OBJECTID": 45, "USER_Type": "Community Gardens - Municipal Land", "USER_Region": "Kingston", "USER_Community_Food_Resource_Na": "Maclean Trail Community Garden", "USER_Address": "80 Gore Rd", "USER_Province": "ON", "USER_Postal_Code": "K7K 6X6", "USER_Affordability": "No cost ", "USER_More_information": "https://www.cityofkingston.ca/activities-and-recreation/facilities-and-rentals/community-gardens-and-orchards/" }, "geometry": { "type": "Point", "coordinates": [ -76.461212997, 44.259573205 ] } },
{ "type": "Feature", "properties": { "OBJECTID": 46, "USER_Type": "Community Orchards and Food Forests", "USER_Region": "Kingston", "USER_Community_Food_Resource_Na": "Kingston Frontenac Housing Conacher Orchard", "USER_Address": "312 Conacher Dr", "USER_Province": "ON", "USER_Postal_Code": "K7K 2X2", "USER_Affordability": "No cost ", "USER_More_information": "https://www.cityofkingston.ca/activities-and-recreation/facilities-and-rentals/community-gardens-and-orchards/" }, "geometry": { "type": "Point", "coordinates": [ -76.495496573, 44.265975889000103 ] } },
{ "type": "Feature", "properties": { "OBJECTID": 47, "USER_Type": "Community Orchards and Food Forests", "USER_Region": "Kingston", "USER_Community_Food_Resource_Na": "Kingston Frontenac Housing Montreal Orchard", "USER_Address": "1060 Montreal St", "USER_Province": "ON", "USER_Postal_Code": "K7K 3K4", "USER_Affordability": "No cost ", "USER_More_information": "https://www.cityofkingston.ca/activities-and-recreation/facilities-and-rentals/community-gardens-and-orchards/" }, "geometry": { "type": "Point", "coordinates": [ -76.480873574, 44.2615949630001 ] } },
{ "type": "Feature", "properties": { "OBJECTID": 48, "USER_Type": "Community Gardens - Municipal Land", "USER_Region": "Kingston", "USER_Community_Food_Resource_Na": "Shannon Park Community Garden", "USER_Address": "199 Wilson St", "USER_Province": "ON", "USER_Postal_Code": "K7K 5Y1", "USER_Affordability": "No cost ", "USER_More_information": "https://www.cityofkingston.ca/activities-and-recreation/facilities-and-rentals/community-gardens-and-orchards/" }, "geometry": { "type": "Point", "coordinates": [ -76.486451997, 44.263821488000097 ] } },
{ "type": "Feature", "properties": { "OBJECTID": 49, "USER_Type": "Community Orchards and Food Forests - Municipal Land", "USER_Region": "Kingston", "USER_Community_Food_Resource_Na": "Kingston Community Health Centers Orchard", "USER_Address": "263 Weller Ave", "USER_Province": "ON", "USER_Postal_Code": "K7K 2V4", "USER_Affordability": "No cost ", "USER_More_information": "https://kchc.ca/programs/seniors-food-box/" }, "geometry": { "type": "Point", "coordinates": [ -76.491432775, 44.262753885000102 ] } },
{ "type": "Feature", "properties": { "OBJECTID": 50, "USER_Type": "Cultural Food Store", "USER_Region": "Kingston", "USER_Community_Food_Resource_Na": "BV Buy Asian Mart", "USER_Address": "164 Princess St", "USER_Province": "ON", "USER_Postal_Code": "K7L 1B1", "USER_Affordability": "Cost", "USER_More_information": "https://www.queensu.ca/yellow-house/resources - map" }, "geometry": { "type": "Point", "coordinates": [ -76.484632705, 44.23175832 ] } },
{ "type": "Feature", "properties": { "OBJECTID": 51, "USER_Type": "Cultural Food Store", "USER_Region": "Kingston", "USER_Community_Food_Resource_Na": "Namaste Indian Groceries", "USER_Address": "277 Bath Rd", "USER_Province": "ON", "USER_Postal_Code": "K7M 2X6", "USER_Affordability": "Cost", "USER_More_information": "https://www.queensu.ca/yellow-house/resources - map" }, "geometry": { "type": "Point", "coordinates": [ -76.525010091999903, 44.240485809000099 ] } },
{ "type": "Feature", "properties": { "OBJECTID": 52, "USER_Type": "Cultural Food Store", "USER_Region": "Kingston", "USER_Community_Food_Resource_Na": "KAS (Kingston Asian Super)", "USER_Address": "274 Princess St", "USER_Province": "ON", "USER_Postal_Code": "K7L 1B5", "USER_Affordability": "Cost", "USER_More_information": "https://www.queensu.ca/yellow-house/resources - map" }, "geometry": { "type": "Point", "coordinates": [ -76.488161318, 44.2322886010001 ] } },
{ "type": "Feature", "properties": { "OBJECTID": 53, "USER_Type": "Cultural Food Store", "USER_Region": "Kingston", "USER_Community_Food_Resource_Na": "Aunty Ann Caribbean / African Grocery & Beauty Supply", "USER_Address": "846 Gardiners Rd", "USER_Province": "ON", "USER_Postal_Code": "K7M 3X9", "USER_Affordability": "Cost", "USER_More_information": "https://www.queensu.ca/yellow-house/resources - map" }, "geometry": { "type": "Point", "coordinates": [ -76.567760732, 44.2530779000001 ] } },
{ "type": "Feature", "properties": { "OBJECTID": 54, "USER_Type": "Cultural Food Store", "USER_Region": "Kingston", "USER_Community_Food_Resource_Na": "J & K Supermarket", "USER_Address": "354 Princess St", "USER_Province": "ON", "USER_Postal_Code": "K7L 1B6", "USER_Affordability": "Cost", "USER_More_information": "https://www.queensu.ca/yellow-house/resources - map" }, "geometry": { "type": "Point", "coordinates": [ -76.490533732, 44.232654513000099 ] } },
{ "type": "Feature", "properties": { "OBJECTID": 55, "USER_Type": "Cultural Food Store", "USER_Region": "Kingston", "USER_Community_Food_Resource_Na": "Alibaba Kebab", "USER_Address": "569 Princess St", "USER_Province": "ON", "USER_Postal_Code": "K7L 1C8", "USER_Affordability": "Cost", "USER_More_information": "https://www.queensu.ca/yellow-house/resources - map" }, "geometry": { "type": "Point", "coordinates": [ -76.498749840999906, 44.235936405000103 ] } },
{ "type": "Feature", "properties": { "OBJECTID": 56, "USER_Type": "Cultural Food Store", "USER_Region": "Kingston", "USER_Community_Food_Resource_Na": "KinsMart", "USER_Address": "9-2395 Princess St", "USER_Province": "ON", "USER_Postal_Code": "K7M 0C4", "USER_Affordability": "Cost", "USER_More_information": "https://www.queensu.ca/yellow-house/resources - map" }, "geometry": { "type": "Point", "coordinates": [ -76.556648256999907, 44.257377858 ] } },
{ "type": "Feature", "properties": { "OBJECTID": 57, "USER_Type": "Cultural Food Store", "USER_Region": "Kingston", "USER_Community_Food_Resource_Na": "Quattrocchi's Specialty Foods", "USER_Address": "662 Montreal St", "USER_Province": "ON", "USER_Postal_Code": "K7K 3J4", "USER_Affordability": "Cost", "USER_More_information": "https://www.queensu.ca/yellow-house/resources - map" }, "geometry": { "type": "Point", "coordinates": [ -76.486910235, 44.248875382000101 ] } },
{ "type": "Feature", "properties": { "OBJECTID": 58, "USER_Type": "Cultural Food Store", "USER_Region": "Kingston", "USER_Community_Food_Resource_Na": "Sham Marts", "USER_Address": "1753 Bath Rd", "USER_Province": "ON", "USER_Postal_Code": "K7M 4Y1", "USER_Affordability": "Cost", "USER_More_information": "https://www.queensu.ca/yellow-house/resources - map" }, "geometry": { "type": "Point", "coordinates": [ -76.574208595, 44.2370841810001 ] } },
{ "type": "Feature", "properties": { "OBJECTID": 59, "USER_Type": "Cultural Food Store", "USER_Region": "Kingston", "USER_Community_Food_Resource_Na": "Barriefield Market", "USER_Address": "760 Hwy 15", "USER_Province": "ON", "USER_Postal_Code": "K7L 0C3", "USER_Affordability": "Cost", "USER_More_information": "https://www.queensu.ca/yellow-house/resources - map" }, "geometry": { "type": "Point", "coordinates": [ -76.461253733, 44.2527197000001 ] } },
{ "type": "Feature", "properties": { "OBJECTID": 60, "USER_Type": "Cultural Food Store", "USER_Region": "Kingston", "USER_Community_Food_Resource_Na": "Tara Natural Foods", "USER_Address": "81 Princess St", "USER_Province": "ON", "USER_Postal_Code": "K7L 1A6", "USER_Affordability": "Cost", "USER_More_information": "https://www.queensu.ca/yellow-house/resources - map" }, "geometry": { "type": "Point", "coordinates": [ -76.481822587999901, 44.231720811000102 ] } },
{ "type": "Feature", "properties": { "OBJECTID": 61, "USER_Type": "Cultural Food Store", "USER_Region": "Kingston", "USER_Community_Food_Resource_Na": "Old Farm Fine Foods", "USER_Address": "204 Barrie St", "USER_Province": "ON", "USER_Postal_Code": "K7L 3K3", "USER_Affordability": "Cost", "USER_More_information": "https://www.queensu.ca/yellow-house/resources - map" }, "geometry": { "type": "Point", "coordinates": [ -76.491099091, 44.228932487000101 ] } },
{ "type": "Feature", "properties": { "OBJECTID": 62, "USER_Type": "Cultural Food Store", "USER_Region": "Kingston", "USER_Community_Food_Resource_Na": "Cooke's Fine Foods and Coffee", "USER_Address": "61 Brock St", "USER_Province": "ON", "USER_Postal_Code": "K7L 1R8", "USER_Affordability": "Cost", "USER_More_information": "https://www.queensu.ca/yellow-house/resources - map" }, "geometry": { "type": "Point", "coordinates": [ -76.481746563999906, 44.230684891000102 ] } },
{ "type": "Feature", "properties": { "OBJECTID": 63, "USER_Type": "Cultural Food Store", "USER_Region": "Kingston", "USER_Community_Food_Resource_Na": "Pasta Genova", "USER_Address": "234 Wellington St", "USER_Province": "ON", "USER_Postal_Code": "K7K 2Y8", "USER_Affordability": "Cost", "USER_More_information": "https://www.queensu.ca/yellow-house/resources - map" }, "geometry": { "type": "Point", "coordinates": [ -76.48223548, 44.2328799860001 ] } },
{ "type": "Feature", "properties": { "OBJECTID": 64, "USER_Type": "Farm Stand", "USER_Region": "Odessa", "USER_Community_Food_Resource_Na": "Wilton Cheese Factory Stand", "USER_Address": "287 Simmons Rd", "USER_Province": "ON", "USER_Postal_Code": "K0H 2H0", "USER_Affordability": "Cost", "USER_More_information": "https://www.wiltoncheese.ca/" }, "geometry": { "type": "Point", "coordinates": [ -76.722859384999893, 44.325456011 ] } },
{ "type": "Feature", "properties": { "OBJECTID": 65, "USER_Type": "Farm Stand", "USER_Region": "Kingston", "USER_Community_Food_Resource_Na": "Foreman Farms", "USER_Address": "4040 Brewers Mill Rd", "USER_Province": "ON", "USER_Postal_Code": "K0H 2N0", "USER_Affordability": "Cost", "USER_More_information": "https://www.facebook.com/permalink.php/?story_fbid=563053562605361&id=100067021654152" }, "geometry": { "type": "Point", "coordinates": [ -76.249784015, 44.414816110000103 ] } },
{ "type": "Feature", "properties": { "OBJECTID": 66, "USER_Type": "Farm Stand", "USER_Region": "Glenburnie", "USER_Community_Food_Resource_Na": "Sun Harvest Greenhouse", "USER_Address": "2542 Perth Rd", "USER_Province": "ON", "USER_Postal_Code": "K0H 1S0", "USER_Affordability": "Cost", "USER_More_information": "https://sunharvest.ca/" }, "geometry": { "type": "Point", "coordinates": [ -76.501577728, 44.324291011000099 ] } },
{ "type": "Feature", "properties": { "OBJECTID": 67, "USER_Type": "Farm Stand", "USER_Region": "Battersea", "USER_Community_Food_Resource_Na": "Patchwork Gardens Food Box", "USER_Address": "4649 Miburn Rd", "USER_Province": "ON", "USER_Postal_Code": "K0H 1H0", "USER_Affordability": "Cost", "USER_More_information": "www.patchworkgardens.ca" }, "geometry": { "type": "Point", "coordinates": [ -76.37571289, 44.415952402000102 ] } },
{ "type": "Feature", "properties": { "OBJECTID": 68, "USER_Type": "Farmers Market", "USER_Region": "Wolfe Island", "USER_Community_Food_Resource_Na": "The Market - Wolfe Island Community & Sustainability", "USER_Address": "1237 Main St", "USER_Province": "ON", "USER_Postal_Code": "K0H 2Y0", "USER_Affordability": "Cost", "USER_More_information": "https://the-market-at-wolfe-island-commons.square.site/" }, "geometry": { "type": "Point", "coordinates": [ -76.386002096, 44.178816501 ] } },
{ "type": "Feature", "properties": { "OBJECTID": 69, "USER_Type": "Farmers Market", "USER_Region": "Verona", "USER_Community_Food_Resource_Na": "Local Family Farms-Food Less Travelled", "USER_Address": "6674 Rd. 38", "USER_Province": "ON", "USER_Postal_Code": "K0H 2W0", "USER_Affordability": "Cost", "USER_More_information": "https://www.facebook.com/locallyfarmed" }, "geometry": { "type": "Point", "coordinates": [ -76.693991188, 44.479443182000097 ] } },
{ "type": "Feature", "properties": { "OBJECTID": 70, "USER_Type": "Farmers Market", "USER_Region": "Inverary", "USER_Community_Food_Resource_Na": "Edible Forest Farm", "USER_Address": "3410 Greenfield Rd", "USER_Province": "ON", "USER_Postal_Code": "K0H 1X0", "USER_Affordability": "Cost", "USER_More_information": "https://www.facebook.com/edibleforestfarms/" }, "geometry": { "type": "Point", "coordinates": [ -76.457877502, 44.406116281 ] } },
{ "type": "Feature", "properties": { "OBJECTID": 71, "USER_Type": "Farmers Market", "USER_Region": "Kingston", "USER_Community_Food_Resource_Na": "Memorial Center Farmers Market", "USER_Address": "303 York St", "USER_Province": "ON", "USER_Postal_Code": "K7K 1P5", "USER_Affordability": "Cost", "USER_More_information": "https://www.memorialcentrefarmersmarket.ca/" }, "geometry": { "type": "Point", "coordinates": [ -76.499832699, 44.239321395 ] } },
{ "type": "Feature", "properties": { "OBJECTID": 72, "USER_Type": "Farmers Market", "USER_Region": "Kingston", "USER_Community_Food_Resource_Na": "Springer Market Square Farmers Market", "USER_Address": "325 King St. E", "USER_Province": "ON", "USER_Postal_Code": "K7L 2Z3", "USER_Affordability": "Cost", "USER_More_information": "http://kingstonpublicmarket.ca/" }, "geometry": { "type": "Point", "coordinates": [ -76.481217828999903, 44.230403215000102 ] } },
{ "type": "Feature", "properties": { "OBJECTID": 73, "USER_Type": "Farmers Market", "USER_Region": "Sharbot Lake", "USER_Community_Food_Resource_Na": "Sharbot Lake Farmers Market", "USER_Address": "Medical Centre Rd", "USER_Province": "ON", "USER_Postal_Code": "K0H 2P0", "USER_Affordability": "Cost", "USER_More_information": "https://www.facebook.com/sharbotlakefarmersmarket/" }, "geometry": { "type": "Point", "coordinates": [ -76.723503617999896, 44.721452908000103 ] } },
{ "type": "Feature", "properties": { "OBJECTID": 74, "USER_Type": "Farmers Market", "USER_Region": "Kingston", "USER_Community_Food_Resource_Na": "West Market Kingston", "USER_Address": "11-730 Front Rd", "USER_Province": "ON", "USER_Postal_Code": "K7M 6P7", "USER_Affordability": "Cost", "USER_More_information": "https://www.facebook.com/YGKWestMarket/" }, "geometry": { "type": "Point", "coordinates": [ -76.571017018, 44.218548315000099 ] } },
{ "type": "Feature", "properties": { "OBJECTID": 75, "USER_Type": "Fresh Food Market Pop-Ups", "USER_Region": "Kingston", "USER_Community_Food_Resource_Na": "Lionhearts - Fresh Food Market Pop Up Stand - Seniors Association Kingston Region", "USER_Address": "56 Francis St", "USER_Province": "ON", "USER_Postal_Code": "K7M 1L7", "USER_Affordability": "Low cost ", "USER_More_information": "https://seniorskingston.ca/" }, "geometry": { "type": "Point", "coordinates": [ -76.522334589, 44.224367912 ] } },
{ "type": "Feature", "properties": { "OBJECTID": 76, "USER_Type": "Fresh Food Market Pop-Ups", "USER_Region": "Kingston", "USER_Community_Food_Resource_Na": "Lionhearts - Fresh Food Market Pop Up Stand - Rideau Heights Community Centre", "USER_Address": "85 Maccauley St", "USER_Province": "ON", "USER_Postal_Code": "K7K 2V8", "USER_Affordability": "Low cost ", "USER_More_information": "https://www.lionhearts.ca/popup" }, "geometry": { "type": "Point", "coordinates": [ -76.483080711, 44.265148888000098 ] } },
{ "type": "Feature", "properties": { "OBJECTID": 77, "USER_Type": "Fresh Food Market Pop-Ups", "USER_Region": "Kingston", "USER_Community_Food_Resource_Na": "Lionhearts - Fresh Food Market Pop Up Stand - YMCA Wright Crescent", "USER_Address": "100 Wright Cres", "USER_Province": "ON", "USER_Postal_Code": "K7L 4T9", "USER_Affordability": "Low cost ", "USER_More_information": "https://www.lionhearts.ca/popup" }, "geometry": { "type": "Point", "coordinates": [ -76.517201009, 44.239737808 ] } },
{ "type": "Feature", "properties": { "OBJECTID": 78, "USER_Type": "Fresh Food Market Pop-Ups", "USER_Region": "Kingston", "USER_Community_Food_Resource_Na": "Lionhearts - Fresh Food Market Pop Up Stand - St. Lawrence College (Kingston Campus Main Lobby)", "USER_Address": "100 Portsmouth Ave", "USER_Province": "ON", "USER_Postal_Code": "K7L 5A6", "USER_Affordability": "Low cost ", "USER_More_information": "https://www.saslc.ca/food-pantry" }, "geometry": { "type": "Point", "coordinates": [ -76.526937594999893, 44.22349238 ] } },
{ "type": "Feature", "properties": { "OBJECTID": 79, "USER_Type": "Fresh Food Market Pop-Ups", "USER_Region": "Kingston", "USER_Community_Food_Resource_Na": "Lionhearts - Fresh Food Market Pop Up Stand - Amherstview Community Hall", "USER_Address": "177 Upper Park Rd", "USER_Province": "ON", "USER_Postal_Code": "K7N 1T2", "USER_Affordability": "Low cost ", "USER_More_information": "https://www.lionhearts.ca/popup" }, "geometry": { "type": "Point", "coordinates": [ -76.642027411999905, 44.225235481 ] } },
{ "type": "Feature", "properties": { "OBJECTID": 80, "USER_Type": "Fresh Food Market Pop-Ups", "USER_Region": "Kingston", "USER_Community_Food_Resource_Na": "Lionhearts - Fresh Food Market Pop Up Stand - Artillery Park Aquatic Centre", "USER_Address": "382 Bagot St", "USER_Province": "ON", "USER_Postal_Code": "K7K 5V1", "USER_Affordability": "Low cost ", "USER_More_information": "https://www.lionhearts.ca/popup" }, "geometry": { "type": "Point", "coordinates": [ -76.484190224, 44.234388184000103 ] } },
{ "type": "Feature", "properties": { "OBJECTID": 81, "USER_Type": "Fresh Food Market Pop-Ups", "USER_Region": "Kingston", "USER_Community_Food_Resource_Na": "Lionhearts - Fresh Food Market Pop Up Stand - INVISTA Centre", "USER_Address": "1350 Gardiners Rd", "USER_Province": "ON", "USER_Postal_Code": "K7P 0E5", "USER_Affordability": "Low cost ", "USER_More_information": "https://www.lionhearts.ca/popup" }, "geometry": { "type": "Point", "coordinates": [ -76.568764380999895, 44.275232695000099 ] } },
{ "type": "Feature", "properties": { "OBJECTID": 82, "USER_Type": "Meal Provider Program", "USER_Region": "Kingston", "USER_Community_Food_Resource_Na": "St. Vincent de Paul Society", "USER_Address": "85 Stephen St", "USER_Province": "ON", "USER_Postal_Code": "K7K 2C5", "USER_Affordability": "No cost ", "USER_More_information": "https://www.svdpkingston.com/" }, "geometry": { "type": "Point", "coordinates": [ -76.491224485, 44.242503710000101 ] } },
{ "type": "Feature", "properties": { "OBJECTID": 83, "USER_Type": "Meal Provider Program", "USER_Region": "Kingston", "USER_Community_Food_Resource_Na": "Bread for Life Club at Salvation Army", "USER_Address": "183 Weller Ave", "USER_Province": "ON", "USER_Postal_Code": "K7K 2V1", "USER_Affordability": "No cost ", "USER_More_information": "https://sacfs.ca/programs/community-choice-pantry" }, "geometry": { "type": "Point", "coordinates": [ -76.488241617, 44.262398912 ] } },
{ "type": "Feature", "properties": { "OBJECTID": 84, "USER_Type": "Meal Provider Program", "USER_Region": "Kingston", "USER_Community_Food_Resource_Na": "VON Kingston", "USER_Address": "1-745 Progress Ave", "USER_Province": "ON", "USER_Postal_Code": "K7M 6S4", "USER_Affordability": "Low cost ", "USER_More_information": "https://von.ca/en" }, "geometry": { "type": "Point", "coordinates": [ -76.574239943, 44.246494544 ] } },
{ "type": "Feature", "properties": { "OBJECTID": 85, "USER_Type": "Meal Provider Program", "USER_Region": "Kingston", "USER_Community_Food_Resource_Na": "Lunch by George", "USER_Address": "129 Wellington St", "USER_Province": "ON", "USER_Postal_Code": "K7L 3C9", "USER_Affordability": "No cost ", "USER_More_information": "https://lunchbygeorge.ca/" }, "geometry": { "type": "Point", "coordinates": [ -76.483349184, 44.229689708000102 ] } },
{ "type": "Feature", "properties": { "OBJECTID": 86, "USER_Type": "Meal Provider Program", "USER_Region": "Kingston", "USER_Community_Food_Resource_Na": "The Salvation Army Patrick St", "USER_Address": "342 Patrick St", "USER_Province": "ON", "USER_Postal_Code": "K7K 6R6", "USER_Affordability": "No cost ", "USER_More_information": "https://sacfs.ca/" }, "geometry": { "type": "Point", "coordinates": [ -76.491173773999904, 44.245685690000101 ] } },
{ "type": "Feature", "properties": { "OBJECTID": 87, "USER_Type": "Meal Provider Program", "USER_Region": "Kingston", "USER_Community_Food_Resource_Na": "Chalmers United Church", "USER_Address": "212 Barrie St", "USER_Province": "ON", "USER_Postal_Code": "K7L 3K3", "USER_Affordability": "No cost ", "USER_More_information": "https://www.lionhearts.ca/popup" }, "geometry": { "type": "Point", "coordinates": [ -76.491187184999902, 44.229118398 ] } },
{ "type": "Feature", "properties": { "OBJECTID": 88, "USER_Type": "Meal Provider Program", "USER_Region": "Kingston", "USER_Community_Food_Resource_Na": "St Paul's Anglican Church - Queen's Good Times Diner", "USER_Address": "212 Barrie St", "USER_Province": "ON", "USER_Postal_Code": "K7L 2L8", "USER_Affordability": "No cost ", "USER_More_information": "https://www.lionhearts.ca/popup" }, "geometry": { "type": "Point", "coordinates": [ -76.491187184999902, 44.229118398 ] } },
{ "type": "Feature", "properties": { "OBJECTID": 89, "USER_Type": "Meal Provider Program", "USER_Region": "Kingston", "USER_Community_Food_Resource_Na": "The Food Sharing Project", "USER_Address": "4-37 Rigney St", "USER_Province": "ON", "USER_Postal_Code": "K7K 6Z3", "USER_Affordability": "No cost ", "USER_More_information": "https://www.lionhearts.ca/popup" }, "geometry": { "type": "Point", "coordinates": [ -76.502407703999907, 44.260908190000102 ] } },
{ "type": "Feature", "properties": { "OBJECTID": 90, "USER_Type": "Meal Provider Program", "USER_Region": "Kingston", "USER_Community_Food_Resource_Na": "Martha's Table", "USER_Address": "629 Princess St", "USER_Province": "ON", "USER_Postal_Code": "K7L 1E2", "USER_Affordability": "No cost ", "USER_More_information": "https://www.lionhearts.ca/popup" }, "geometry": { "type": "Point", "coordinates": [ -76.501540260999903, 44.237100191 ] } },
{ "type": "Feature", "properties": { "OBJECTID": 91, "USER_Type": "Low-cost Grocery Store", "USER_Region": "Kingston", "USER_Community_Food_Resource_Na": "No Frills", "USER_Address": "1162 Division St", "USER_Province": "ON", "USER_Postal_Code": "K7K 0C3", "USER_Affordability": "Low cost", "USER_More_information": "https://www.nofrills.ca" }, "geometry": { "type": "Point", "coordinates": [ -76.500109637, 44.264305082000099 ] } },
{ "type": "Feature", "properties": { "OBJECTID": 92, "USER_Type": "Meal Provider Program", "USER_Region": "Kingston", "USER_Community_Food_Resource_Na": "Kingston Seventh-Day Adventist Church - Hot Meal Program", "USER_Address": "66 Wright Cres", "USER_Province": "ON", "USER_Postal_Code": "K7L 4T9", "USER_Affordability": "No cost ", "USER_More_information": "https://www.cityofkingston.ca/activities-and-recreation/facilities-and-rentals/community-gardens-and-orchards/" }, "geometry": { "type": "Point", "coordinates": [ -76.517009313999907, 44.238337485 ] } },
{ "type": "Feature", "properties": { "OBJECTID": 93, "USER_Type": "Low-cost Grocery Store", "USER_Region": "Kingston", "USER_Community_Food_Resource_Na": "FreshCo", "USER_Address": "2327 Princess St", "USER_Province": "ON", "USER_Postal_Code": "K7M 3G1", "USER_Affordability": "Low cost", "USER_More_information": "https://freshco.com" }, "geometry": { "type": "Point", "coordinates": [ -76.549939716, 44.257257788000103 ] } },
{ "type": "Feature", "properties": { "OBJECTID": 94, "USER_Type": "Low-cost Grocery Store", "USER_Region": "Kingston", "USER_Community_Food_Resource_Na": "Food Basics", "USER_Address": "33 Barrack St", "USER_Province": "ON", "USER_Postal_Code": "K7K 7A9", "USER_Affordability": "Low cost", "USER_More_information": "http://www.foodbasics.ca" }, "geometry": { "type": "Point", "coordinates": [ -76.480656580999906, 44.2333626160001 ] } },
{ "type": "Feature", "properties": { "OBJECTID": 95, "USER_Type": "Low-cost Grocery Store", "USER_Region": "Kingston", "USER_Community_Food_Resource_Na": "Food Basics", "USER_Address": "1200 Hwy 15", "USER_Province": "ON", "USER_Postal_Code": "K7L 0C4", "USER_Affordability": "Low cost", "USER_More_information": "http://www.foodbasics.ca" }, "geometry": { "type": "Point", "coordinates": [ -76.451545896, 44.270097606 ] } },
{ "type": "Feature", "properties": { "OBJECTID": 96, "USER_Type": "Low-cost Grocery Store", "USER_Region": "Kingston", "USER_Community_Food_Resource_Na": "No Frills", "USER_Address": "1030 Coverdale Dr", "USER_Province": "ON", "USER_Postal_Code": "K7M 8X7", "USER_Affordability": "Low cost", "USER_More_information": "https://www.nofrills.ca" }, "geometry": { "type": "Point", "coordinates": [ -76.591946714, 44.237800708000101 ] } },
{ "type": "Feature", "properties": { "OBJECTID": 97, "USER_Type": "Low-cost Grocery Store", "USER_Region": "Kingston", "USER_Community_Food_Resource_Na": "Food Basics", "USER_Address": "770 Gardiners Rd", "USER_Province": "ON", "USER_Postal_Code": "K7M 3X9", "USER_Affordability": "Low cost", "USER_More_information": "http://www.foodbasics.ca" }, "geometry": { "type": "Point", "coordinates": [ -76.566404876, 44.249483405 ] } },
{ "type": "Feature", "properties": { "OBJECTID": 98, "USER_Type": "Low-cost Grocery Store", "USER_Region": "Kingston", "USER_Community_Food_Resource_Na": "Food Basics", "USER_Address": "1225 Princess St", "USER_Province": "ON", "USER_Postal_Code": "K7M 3E1", "USER_Affordability": "Low cost", "USER_More_information": "http://www.foodbasics.ca" }, "geometry": { "type": "Point", "coordinates": [ -76.523525322, 44.247294219 ] } },
{ "type": "Feature", "properties": { "OBJECTID": 99, "USER_Type": "Low-cost Grocery Store", "USER_Region": "Kingston", "USER_Community_Food_Resource_Na": "Walmart", "USER_Address": "1130 Midland Ave", "USER_Province": "ON", "USER_Postal_Code": "K7P 2X9", "USER_Affordability": "Low cost ", "USER_More_information": "https://www.walmart.ca" }, "geometry": { "type": "Point", "coordinates": [ -76.572903783999905, 44.265027686000103 ] } }
]
}
